[
  {
    "title": "Workers needed",
    "date": "2022-05-01",
    "category": "Volunteer",
    "address": "Rhodes",
    "postcode": "2138",
    "description": "We need someone to help move furnitures.",
    "latitude": -33.865,
    "longitude": 151.2094,
    "host": {
      "name": "Monash University",
      "address": "Wellington Rd, Clayton VIC 3800",
      "phone": "03 9905 4000",
      "website": "https://www.monash.edu/",
      "description": "Monash University is a public research university based in Melbourne, Victoria, Australia. "
    }
  },
  {
    "title": "Community market",
    "date": "2022-05-01",
    "category": "Community Event",
    "address": "",
    "postcode": "",
    "description": "Local fresh produce and vegetables for sale.",
    "latitude": -37.8136,
    "longitude": 144.9631,
    "host": {
      "name": "UNICEF Melbourne",
      "address": "41-41a 72 3205/68 York St, South Melbourne VIC 3205",
      "phone": "1300 884 233",
      "website": "https://www.unicef.org/",
      "description": "UNICEF, in full called the United Nations Children's Fund, is an agency of the United Nations responsible for providing humanitarian and developmental aid to children worldwide. "
    }
  },
  {
    "title": "Gamers meetup",
    "date": "2022-05-01",
    "category": "Local meetup",
    "address": "",
    "postcode": "",
    "description": "Come and play games with other gamers.",
    "latitude": -27.4678,
    "longitude": 153.0281,
    "host": {
      "name": "Monash Student Association",
      "address": "Wellington Rd, Clayton VIC 3800",
      "phone": "03 9905 4000",
      "website": "https://msa.monash.edu/",
      "description": "The MSA is made up of elected student representatives who represent all undergraduate Clayton campus students on general issues such as education, fees and student welfare, and also specific issues such as women's affairs and queer affairs. "
    }
  }
]
